City_ID,City,Country,Date,Lat,Lng,Max Temp,Humidity,Cloudiness,Wind Speed,Current Desc,Rain Inches (last 3 hrs),Snow Inches (last 3 hrs)
0,Puerto Ayora,EC,2020-02-23 17:58:38,-0.74,-90.35,84.2,74,20,12.75,few clouds,0.0,0.0
1,Rikitea,PF,2020-02-23 17:58:23,-23.12,-134.97,78.37,74,2,8.25,light rain,0.44,0.0
2,Provideniya,RU,2020-02-23 17:58:49,64.38,-173.3,-9.76,73,0,2.24,clear sky,0.0,0.0
3,Lukovetskiy,RU,2020-02-23 18:02:54,64.3,41.92,35.6,80,90,11.18,overcast clouds,0.0,0.0
4,Cape Town,ZA,2020-02-23 17:58:43,-33.93,18.42,75.2,44,0,21.92,clear sky,0.0,0.0
5,Sokoni,TZ,2020-02-23 17:59:33,-6.43,39.55,84.2,79,20,11.41,few clouds,0.0,0.0
6,Bambous Virieux,MU,2020-02-23 18:02:55,-20.34,57.76,78.01,94,75,9.17,shower rain,0.0,0.0
7,Kapaa,US,2020-02-23 17:58:39,22.08,-159.32,66.2,88,1,9.17,clear sky,0.0,0.0
8,Cabo San Lucas,MX,2020-02-23 18:00:30,22.89,-109.91,84.0,47,75,11.45,broken clouds,0.0,0.0
9,Hithadhoo,MV,2020-02-23 18:02:56,-0.6,73.08,83.26,78,100,14.05,light rain,2.13,0.0
10,Mancio Lima,BR,2020-02-23 18:02:56,-7.61,-72.9,84.2,70,75,8.05,broken clouds,0.0,0.0
11,Auki,SB,2020-02-23 18:02:56,-8.77,160.7,82.81,79,5,7.23,light rain,0.87,0.0
12,Busselton,AU,2020-02-23 17:58:20,-33.65,115.33,69.01,43,93,15.14,light rain,0.69,0.0
13,Atuona,PF,2020-02-23 17:58:47,-9.8,-139.03,81.3,78,20,15.3,light rain,0.5,0.0
14,Avarua,CK,2020-02-23 18:02:57,-21.21,-159.78,80.6,94,100,6.93,light rain,0.0,0.0
15,Kondinskoye,RU,2020-02-23 18:02:57,59.65,67.41,29.05,92,91,11.77,overcast clouds,0.0,0.0
16,Luderitz,NA,2020-02-23 17:58:30,-26.65,15.16,68.49,71,0,27.65,clear sky,0.0,0.0
17,Puerto Escondido,MX,2020-02-23 17:59:10,15.85,-97.07,86.0,84,5,6.93,clear sky,0.0,0.0
18,Ilulissat,GL,2020-02-23 18:02:58,69.22,-51.1,1.4,45,0,1.12,clear sky,0.0,0.0
19,Hilo,US,2020-02-23 17:59:28,19.73,-155.09,69.01,68,1,6.93,clear sky,0.0,0.0
20,Qaanaaq,GL,2020-02-23 17:58:44,77.48,-69.36,-19.57,78,24,5.01,few clouds,0.0,0.0
21,Dikson,RU,2020-02-23 17:58:46,73.51,80.55,30.27,95,100,27.36,snow,0.0,1.75
22,Cayenne,GF,2020-02-23 18:00:03,4.93,-52.33,84.2,70,75,14.99,broken clouds,0.0,0.0
23,Vaini,TO,2020-02-23 17:58:43,-21.2,-175.2,77.0,100,75,6.93,broken clouds,0.0,0.0
24,Le Port,RE,2020-02-23 18:02:59,-20.94,55.29,78.8,83,89,3.36,overcast clouds,0.0,0.0
25,Laguna,US,2020-02-23 18:03:00,38.42,-121.42,57.99,81,20,5.82,few clouds,0.0,0.0
26,Butaritari,KI,2020-02-23 17:58:47,3.07,172.79,84.7,76,100,17.56,moderate rain,6.37,0.0
27,Albany,US,2020-02-23 18:03:00,42.6,-73.97,50.0,33,40,5.82,scattered clouds,0.0,0.0
28,New Norfolk,AU,2020-02-23 17:58:22,-42.78,147.06,57.2,76,97,2.24,overcast clouds,0.0,0.0
29,Shelburne,CA,2020-02-23 18:03:01,44.08,-80.2,45.0,48,20,11.41,few clouds,0.0,0.0
30,Hobart,AU,2020-02-23 17:54:08,-42.88,147.33,57.2,76,99,2.24,overcast clouds,0.0,0.0
31,Poum,NC,2020-02-23 18:03:01,-20.23,164.02,80.62,76,37,22.37,scattered clouds,0.0,0.0
32,Dunedin,NZ,2020-02-23 18:01:29,-45.87,170.5,57.0,85,94,3.11,overcast clouds,0.0,0.0
33,Severo-Kurilsk,RU,2020-02-23 18:03:02,50.68,156.12,23.5,96,100,37.63,snow,0.0,3.06
34,Chuy,UY,2020-02-23 17:58:50,-33.7,-53.46,71.78,59,66,4.61,broken clouds,0.0,0.0
35,Lompoc,US,2020-02-23 18:03:02,34.64,-120.46,62.01,71,90,3.36,overcast clouds,0.0,0.0
36,Wilmington,US,2020-02-23 17:59:24,34.23,-77.94,63.0,35,1,5.28,light rain,0.0,0.0
37,Hualmay,PE,2020-02-23 18:03:02,-11.1,-77.61,81.93,50,34,10.89,scattered clouds,0.0,0.0
38,Sawtell,AU,2020-02-23 18:03:03,-30.38,153.1,68.0,100,90,5.82,moderate rain,0.0,0.0
39,Cap Malheureux,MU,2020-02-23 18:03:03,-19.98,57.61,78.01,94,75,9.17,shower rain,0.0,0.0
40,Cherskiy,RU,2020-02-23 17:58:46,68.75,161.3,-25.89,91,71,6.55,broken clouds,0.0,0.0
41,Luau,AO,2020-02-23 18:03:04,-10.71,22.22,68.22,96,100,5.97,light rain,0.69,0.0
42,Antofagasta,CL,2020-02-23 18:02:16,-23.65,-70.4,73.4,69,20,12.75,few clouds,0.0,0.0
43,Sitka,US,2020-02-23 17:58:42,57.05,-135.33,33.8,86,90,16.02,moderate rain,0.0,0.0
44,Katsuura,JP,2020-02-23 18:03:04,35.13,140.3,44.6,36,20,13.87,few clouds,0.0,0.0
45,Mar Del Plata,AR,2020-02-23 17:58:28,-38.0,-57.56,81.0,50,20,12.75,few clouds,0.0,0.0
46,Genhe,CN,2020-02-23 18:03:05,50.78,121.52,0.18,97,64,2.75,broken clouds,0.0,0.0
47,Vostok,RU,2020-02-23 18:03:05,46.49,135.88,2.64,95,51,4.54,broken clouds,0.0,0.0
48,Lavrentiya,RU,2020-02-23 18:03:05,65.58,-171.0,-9.58,77,16,5.1,few clouds,0.0,0.0
49,Barrow,US,2020-02-23 17:58:31,71.29,-156.79,-29.2,81,75,8.05,broken clouds,0.0,0.0
50,Longyearbyen,SJ,2020-02-23 18:02:27,78.22,15.64,-4.0,76,20,6.93,few clouds,0.0,0.0
51,Tagab,AF,2020-02-23 18:03:06,34.85,69.65,46.4,65,75,5.82,broken clouds,0.0,0.0
52,Ponta Do Sol,PT,2020-02-23 18:03:06,32.67,-17.1,71.01,60,20,18.34,few clouds,0.0,0.0
53,Zhigansk,RU,2020-02-23 18:03:07,66.77,123.37,-15.09,99,94,9.17,overcast clouds,0.0,0.0
54,Port Hardy,CA,2020-02-23 17:58:41,50.7,-127.42,39.2,93,90,25.28,light intensity shower rain,0.0,0.0
55,Bin Qirdan,TN,2020-02-23 18:03:08,33.14,11.22,58.5,60,0,7.58,clear sky,0.0,0.0
56,Castro,BR,2020-02-23 17:58:45,-24.79,-50.01,79.45,39,100,1.3,overcast clouds,0.0,0.0
57,Yellowknife,CA,2020-02-23 18:01:37,62.46,-114.35,-8.0,69,40,8.05,scattered clouds,0.0,0.0
58,Punta Arenas,CL,2020-02-23 17:58:24,-53.15,-70.92,55.4,58,75,23.04,broken clouds,0.0,0.0
59,Jamestown,US,2020-02-23 17:56:04,42.1,-79.24,48.2,32,1,13.87,clear sky,0.0,0.0
60,Airai,TL,2020-02-23 18:03:09,-8.93,125.41,66.96,87,74,4.16,broken clouds,0.0,0.0
61,Pangnirtung,CA,2020-02-23 17:58:53,66.15,-65.71,-31.0,66,75,3.36,broken clouds,0.0,0.0
62,Mollendo,PE,2020-02-23 18:03:09,-17.02,-72.01,72.77,84,97,8.34,overcast clouds,0.0,0.0
63,Butterworth,MY,2020-02-23 18:03:09,5.4,100.36,80.6,65,20,10.29,few clouds,0.0,0.0
64,Kodiak,US,2020-02-23 17:58:44,57.79,-152.41,17.6,48,1,33.33,clear sky,0.0,0.0
65,Souillac,MU,2020-02-23 18:03:10,-20.52,57.52,78.01,94,75,9.17,shower rain,0.0,0.0
66,Tshikapa,CD,2020-02-23 18:03:10,-6.42,20.8,71.22,95,100,3.18,overcast clouds,0.0,0.0
67,Pisco,PE,2020-02-23 17:58:43,-13.7,-76.22,78.01,30,40,9.17,scattered clouds,0.0,0.0
68,Bairiki,KI,2020-02-23 18:03:11,1.33,172.98,84.63,76,95,10.69,light rain,1.06,0.0
69,Odienne,CI,2020-02-23 18:03:11,9.51,-7.57,97.5,12,33,4.74,scattered clouds,0.0,0.0
70,Arraial Do Cabo,BR,2020-02-23 18:00:05,-22.97,-42.03,80.6,69,75,8.05,broken clouds,0.0,0.0
71,Makhinjauri,GE,2020-02-23 18:03:11,41.67,41.69,46.4,87,75,5.23,broken clouds,0.0,0.0
72,Kangaatsiaq,GL,2020-02-23 18:03:12,68.31,-53.46,4.5,75,4,3.65,clear sky,0.0,0.0
73,Ciudad Bolivar,VE,2020-02-23 18:03:12,8.12,-63.55,95.22,34,84,7.23,broken clouds,0.0,0.0
74,Diffa,NE,2020-02-23 17:58:52,13.32,12.61,78.84,13,0,10.8,clear sky,0.0,0.0
75,Karpogory,RU,2020-02-23 18:03:12,64.0,44.45,33.67,89,100,15.17,light snow,0.0,0.19
76,Takoradi,GH,2020-02-23 18:03:12,4.88,-1.76,82.76,80,93,7.83,light rain,0.88,0.0
77,Kutum,SD,2020-02-23 18:03:13,14.2,24.67,65.97,16,0,6.4,clear sky,0.0,0.0
78,Katima Mulilo,NA,2020-02-23 18:03:13,-17.5,24.27,78.8,83,94,2.24,overcast clouds,0.0,0.0
79,Tessalit,ML,2020-02-23 18:03:13,20.2,1.01,81.7,11,27,7.14,scattered clouds,0.0,0.0
80,Carnarvon,AU,2020-02-23 17:58:38,-24.87,113.63,77.0,83,0,10.29,clear sky,0.0,0.0
81,Port Alfred,ZA,2020-02-23 17:56:11,-33.59,26.89,64.99,80,52,8.03,broken clouds,0.0,0.0
82,Korla,CN,2020-02-23 17:58:46,41.76,86.15,28.15,43,14,1.12,few clouds,0.0,0.0
83,Nikolskoye,RU,2020-02-23 17:58:46,59.7,30.79,37.4,90,75,8.95,light intensity shower rain,0.0,0.0
84,Sioux Lookout,CA,2020-02-23 18:03:14,50.1,-91.92,30.2,63,75,8.05,broken clouds,0.0,0.0
85,Hasaki,JP,2020-02-23 17:57:07,35.73,140.83,42.8,41,20,6.93,few clouds,0.0,0.0
86,Skjervoy,NO,2020-02-23 18:03:15,70.03,20.97,28.4,74,75,6.93,broken clouds,0.0,0.0
87,Margate,GB,2020-02-23 18:03:15,51.38,1.39,50.0,57,98,10.29,overcast clouds,0.0,0.0
88,Iqaluit,CA,2020-02-23 18:03:15,63.75,-68.51,-23.01,55,20,12.75,few clouds,0.0,0.0
89,Tuktoyaktuk,CA,2020-02-23 17:58:48,69.45,-133.04,-7.6,83,90,13.87,light snow,0.0,0.0
90,Ust-Kuyga,RU,2020-02-23 18:03:18,70.02,135.6,-18.96,100,78,3.94,broken clouds,0.0,0.0
91,Tasiilaq,GL,2020-02-23 18:03:18,65.61,-37.64,10.4,66,96,8.46,overcast clouds,0.0,0.0
92,Hermanus,ZA,2020-02-23 17:55:58,-34.42,19.23,66.0,70,0,5.01,clear sky,0.0,0.0
93,Portland,US,2020-02-23 18:01:11,45.52,-122.68,48.2,76,90,14.99,light rain,0.0,0.0
94,Saint-Philippe,RE,2020-02-23 17:58:25,-21.36,55.77,78.8,78,20,2.24,few clouds,0.0,0.0
95,Thompson,CA,2020-02-23 17:58:52,55.74,-97.86,12.2,72,75,5.82,broken clouds,0.0,0.0
96,Mindelo,CV,2020-02-23 18:03:19,16.89,-24.98,75.2,57,20,21.92,few clouds,0.0,0.0
97,Khatanga,RU,2020-02-23 18:03:20,71.97,102.5,12.67,92,98,15.46,light snow,0.0,0.25
98,Vanimo,PG,2020-02-23 18:03:20,-2.67,141.3,82.33,80,100,18.84,light rain,1.37,0.0
99,Ribeira Grande,PT,2020-02-23 18:03:20,38.52,-28.7,62.6,67,40,5.82,scattered clouds,0.0,0.0
100,Kavieng,PG,2020-02-23 17:59:11,-2.57,150.8,84.34,72,49,11.52,scattered clouds,0.0,0.0
101,Mataura,NZ,2020-02-23 17:58:43,-46.19,168.86,51.01,91,93,1.99,overcast clouds,0.0,0.0
102,Ushuaia,AR,2020-02-23 17:58:40,-54.8,-68.3,50.0,76,75,9.17,light intensity drizzle,0.0,0.0
103,Paracuru,BR,2020-02-23 18:03:21,-3.41,-39.03,87.8,66,75,9.17,broken clouds,0.0,0.0
104,Tazovskiy,RU,2020-02-23 18:03:21,67.47,78.7,27.97,90,100,18.1,overcast clouds,0.0,0.0
105,Jalu,LY,2020-02-23 18:03:21,29.03,21.55,57.83,39,49,10.11,scattered clouds,0.0,0.0
106,Jamu Mare,RO,2020-02-23 18:03:22,45.25,21.42,53.6,59,73,8.05,broken clouds,0.0,0.0
107,Suruc,TR,2020-02-23 18:03:22,36.98,38.42,46.4,87,75,8.05,broken clouds,0.0,0.0
108,Petauke,ZM,2020-02-23 18:02:43,-14.24,31.33,73.31,91,50,2.44,scattered clouds,0.0,0.0
109,Bethel,US,2020-02-23 17:58:18,41.37,-73.41,55.0,29,1,10.29,clear sky,0.0,0.0
110,Dawson,US,2020-02-23 18:00:19,31.77,-84.45,60.8,30,1,3.91,clear sky,0.0,0.0
111,Omagari,JP,2020-02-23 18:03:23,39.45,140.48,34.0,65,93,5.01,light snow,0.0,0.13
112,Barra,BR,2020-02-23 18:03:24,-11.09,-43.14,82.47,65,100,5.99,overcast clouds,0.0,0.0
113,Luwuk,ID,2020-02-23 18:03:24,-0.95,122.79,82.85,73,40,11.5,scattered clouds,0.0,0.0
114,Karratha,AU,2020-02-23 18:03:24,-20.74,116.85,81.64,77,7,15.28,clear sky,0.0,0.0
115,Cockburn Town,TC,2020-02-23 18:03:24,21.46,-71.14,73.96,74,14,22.06,few clouds,0.0,0.0
116,Puerto Baquerizo Moreno,EC,2020-02-23 18:03:24,-0.9,-89.6,84.2,79,20,11.41,few clouds,0.0,0.0
117,Torbay,CA,2020-02-23 17:58:46,47.67,-52.73,37.99,69,40,24.16,scattered clouds,0.0,0.0
118,Esperance,AU,2020-02-23 18:03:25,-33.87,121.9,66.2,88,75,10.29,broken clouds,0.0,0.0
119,Vao,NC,2020-02-23 18:03:25,-22.67,167.48,77.65,76,83,14.32,broken clouds,0.0,0.0
120,Sanmenxia,CN,2020-02-23 18:03:25,34.77,111.18,52.84,56,98,5.17,overcast clouds,0.0,0.0
121,Frumusita,RO,2020-02-23 18:03:26,45.67,28.07,47.32,54,100,10.78,overcast clouds,0.0,0.0
122,Andenes,NO,2020-02-23 18:03:26,69.31,16.12,39.2,80,75,19.46,broken clouds,0.0,0.0
123,Lorengau,PG,2020-02-23 17:58:53,-2.02,147.27,83.43,71,10,6.78,clear sky,0.0,0.0
124,Gushikawa,JP,2020-02-23 18:03:26,26.35,127.87,62.6,71,40,3.36,scattered clouds,0.0,0.0
125,Asau,RO,2020-02-23 17:59:02,46.43,26.4,48.2,57,100,6.93,overcast clouds,0.0,0.0
126,Machico,PT,2020-02-23 18:03:27,32.7,-16.77,71.01,60,20,18.34,few clouds,0.0,0.0
127,Vila Franca Do Campo,PT,2020-02-23 18:03:27,37.72,-25.43,62.6,82,20,8.05,few clouds,0.0,0.0
128,Monrovia,LR,2020-02-23 17:59:35,6.3,-10.8,84.16,77,100,12.91,overcast clouds,0.0,0.0
129,Bredasdorp,ZA,2020-02-23 17:58:50,-34.53,20.04,68.0,49,0,17.22,clear sky,0.0,0.0
130,Sanming,CN,2020-02-23 18:03:27,26.25,117.62,54.28,82,8,3.15,clear sky,0.0,0.0
131,Saint George,US,2020-02-23 18:03:28,37.1,-113.58,48.99,75,61,8.05,broken clouds,0.0,0.0
132,Aldan,RU,2020-02-23 18:02:05,58.6,125.39,5.83,96,100,3.69,light snow,0.0,0.44
133,Vestmannaeyjar,IS,2020-02-23 18:03:28,63.44,-20.27,33.8,63,75,25.28,broken clouds,0.0,0.0
134,Puerto Madero,MX,2020-02-23 18:03:28,14.72,-92.42,91.4,49,20,9.33,few clouds,0.0,0.0
135,Shenjiamen,CN,2020-02-23 18:03:28,29.96,122.3,54.03,79,0,17.25,clear sky,0.0,0.0
136,Pevek,RU,2020-02-23 18:03:29,69.7,170.31,-11.27,98,100,1.92,light snow,0.0,0.13
137,Touros,BR,2020-02-23 18:03:29,-5.2,-35.46,89.6,59,20,13.87,few clouds,0.0,0.0
138,Zambezi,ZM,2020-02-23 18:03:29,-13.54,23.1,70.74,94,100,2.86,light rain,0.25,0.0
139,Clyde River,CA,2020-02-23 18:03:29,70.47,-68.59,-22.0,74,1,17.22,clear sky,0.0,0.0
140,Victoria,HK,2020-02-23 17:56:09,22.29,114.16,71.01,59,66,20.8,broken clouds,0.0,0.0
141,Nemuro,JP,2020-02-23 18:03:30,43.32,145.57,28.53,78,58,22.68,broken clouds,0.0,0.0
142,Aklavik,CA,2020-02-23 18:03:30,68.22,-135.01,-4.0,76,90,5.82,overcast clouds,0.0,0.0
143,Toamasina,MG,2020-02-23 18:03:30,-18.17,49.38,82.4,78,75,5.82,thunderstorm,0.0,0.0
144,Sao Joao Da Barra,BR,2020-02-23 18:03:30,-21.64,-41.05,78.8,61,90,16.11,overcast clouds,0.0,0.0
145,Filadelfia,US,2020-02-23 18:02:44,39.95,-75.16,55.99,18,1,8.05,clear sky,0.0,0.0
146,Praia,CV,2020-02-23 18:03:31,14.92,-23.51,75.2,60,75,19.46,broken clouds,0.0,0.0
147,Tyup,KG,2020-02-23 18:03:31,42.73,78.36,24.62,48,100,4.92,overcast clouds,0.0,0.0
148,Gat,IL,2020-02-23 17:59:56,31.61,34.76,59.0,77,75,4.7,broken clouds,0.0,0.0
149,Saint Anthony,US,2020-02-23 18:03:32,45.02,-93.22,45.0,48,1,11.41,clear sky,0.0,0.0
150,Nome,US,2020-02-23 18:03:32,64.5,-165.41,1.4,84,90,11.41,haze,0.0,0.0
151,East London,ZA,2020-02-23 18:02:13,-33.02,27.91,66.2,72,20,5.82,few clouds,0.0,0.0
152,Port Augusta,AU,2020-02-23 18:03:33,-32.5,137.77,75.0,73,62,8.05,broken clouds,0.0,0.0
153,Naze,JP,2020-02-23 18:03:33,28.37,129.48,51.8,87,0,4.7,clear sky,0.0,0.0
154,Celestun,MX,2020-02-23 18:03:33,20.87,-90.4,72.41,60,7,5.46,clear sky,0.0,0.0
155,Casper,US,2020-02-23 18:03:34,42.87,-106.31,39.99,68,1,3.36,clear sky,0.0,0.0
156,Mandalgovi,MN,2020-02-23 18:03:34,45.76,106.27,21.06,74,79,9.6,broken clouds,0.0,0.0
157,Saint-Leu,RE,2020-02-23 18:00:00,-21.15,55.28,78.8,78,20,2.24,few clouds,0.0,0.0
158,Mirnyy,RU,2020-02-23 18:03:35,62.54,113.96,-2.2,84,12,6.71,few clouds,0.0,0.0
159,Linhares,BR,2020-02-23 18:03:35,-19.39,-40.07,73.35,91,100,10.47,light rain,1.31,0.0
160,Sola,VU,2020-02-23 18:03:36,-13.88,167.55,82.78,78,25,15.57,scattered clouds,0.0,0.0
161,Nayoro,JP,2020-02-23 18:03:36,44.35,142.46,12.63,92,67,2.68,broken clouds,0.0,0.0
162,Kahului,US,2020-02-23 18:03:36,20.89,-156.47,72.0,82,20,5.82,few clouds,0.0,0.0
163,Tuatapere,NZ,2020-02-23 18:03:37,-46.13,167.68,51.01,91,29,3.0,scattered clouds,0.0,0.0
164,Guerrero Negro,MX,2020-02-23 18:03:37,27.98,-114.06,63.03,61,100,18.25,overcast clouds,0.0,0.0
165,Bengkulu,ID,2020-02-23 18:01:23,-3.8,102.27,74.64,90,15,4.23,few clouds,0.0,0.0
166,Kaitangata,NZ,2020-02-23 17:58:40,-46.28,169.85,55.99,82,99,4.0,overcast clouds,0.0,0.0
167,Barreirinhas,BR,2020-02-23 18:00:21,-2.75,-42.83,82.22,87,80,4.56,moderate rain,3.44,0.0
168,Lebu,CL,2020-02-23 18:03:38,-37.62,-73.65,69.19,57,2,9.35,clear sky,0.0,0.0
169,Guiren,CN,2020-02-23 18:03:38,33.67,118.19,51.93,79,100,7.72,overcast clouds,0.0,0.0
170,Te Anau,NZ,2020-02-23 18:03:38,-45.42,167.72,47.43,83,38,4.32,scattered clouds,0.0,0.0
171,Chokurdakh,RU,2020-02-23 18:03:38,70.63,147.92,-22.4,99,96,3.74,overcast clouds,0.0,0.0
172,Podlesnoye,RU,2020-02-23 18:03:39,51.82,47.01,31.95,97,100,16.49,light snow,0.0,0.5
173,Tiksi,RU,2020-02-23 17:58:47,71.69,128.87,-9.99,88,100,7.81,overcast clouds,0.0,0.0
174,Saraland,US,2020-02-23 18:03:39,30.82,-88.07,66.0,48,1,5.82,clear sky,0.0,0.0
175,Isangel,VU,2020-02-23 18:03:39,-19.55,169.27,77.16,78,29,13.98,scattered clouds,0.0,0.0
176,Muros,ES,2020-02-23 18:03:40,42.78,-9.06,66.0,72,0,5.82,clear sky,0.0,0.0
177,Saskylakh,RU,2020-02-23 17:58:42,71.92,114.08,6.31,85,100,8.46,overcast clouds,0.0,0.0
178,Colombia,CU,2020-02-23 18:00:11,20.99,-77.43,73.4,88,75,13.87,broken clouds,0.0,0.0
179,Salalah,OM,2020-02-23 18:03:40,17.02,54.09,77.0,73,0,2.24,clear sky,0.0,0.0
180,Skegness,GB,2020-02-23 18:03:40,53.14,0.34,44.6,65,20,12.75,few clouds,0.0,0.0
181,Sisimiut,GL,2020-02-23 17:59:55,66.94,-53.67,0.01,68,64,1.86,broken clouds,0.0,0.0
182,Calbuco,CL,2020-02-23 18:03:41,-41.77,-73.13,60.8,72,75,8.05,broken clouds,0.0,0.0
183,Morant Bay,JM,2020-02-23 18:03:41,17.88,-76.41,84.2,66,40,8.05,scattered clouds,0.0,0.0
184,Kalabo,ZM,2020-02-23 18:03:41,-14.97,22.68,68.2,91,100,15.43,heavy intensity rain,15.5,0.0
185,Paris,FR,2020-02-23 18:02:57,48.85,2.35,55.4,87,90,14.99,overcast clouds,0.0,0.0
186,Chiredzi,ZW,2020-02-23 18:03:42,-21.05,31.67,72.72,78,100,13.91,overcast clouds,0.0,0.0
187,Mitsamiouli,KM,2020-02-23 18:03:42,-11.38,43.28,82.4,88,20,2.24,few clouds,0.0,0.0
188,Labuhan,ID,2020-02-23 18:03:42,-6.88,112.21,75.2,93,89,3.27,light rain,0.13,0.0
189,Lekoni,GA,2020-02-23 18:03:43,-1.58,14.26,82.02,65,68,11.86,light rain,1.38,0.0
190,Kjollefjord,NO,2020-02-23 18:03:43,70.95,27.35,33.8,86,75,8.05,broken clouds,0.0,0.0
191,Bluff,NZ,2020-02-23 18:03:43,-46.6,168.33,51.01,91,40,3.0,scattered clouds,0.0,0.0
192,Sur,OM,2020-02-23 17:58:47,22.57,59.53,71.22,68,0,1.36,clear sky,0.0,0.0
193,Hovd,MN,2020-02-23 18:03:43,48.01,91.64,17.64,66,100,1.9,overcast clouds,0.0,0.0
194,Oster,UA,2020-02-23 18:03:44,50.95,30.88,41.0,75,90,11.18,overcast clouds,0.0,0.0
195,Lagoa,PT,2020-02-23 17:58:49,39.05,-27.98,60.24,78,15,11.54,few clouds,0.0,0.0
196,San Patricio,MX,2020-02-23 18:03:44,19.22,-104.7,82.4,69,5,6.93,clear sky,0.0,0.0
197,Zyryanka,RU,2020-02-23 18:03:44,65.75,150.85,-11.97,98,100,1.23,overcast clouds,0.0,0.0
198,Kupang,ID,2020-02-23 18:03:45,-10.17,123.58,83.73,79,50,11.65,scattered clouds,0.0,0.0
199,Binga,ZW,2020-02-23 18:03:45,-17.62,27.34,81.84,77,86,5.48,light rain,0.94,0.0
200,Bilibino,RU,2020-02-23 17:58:46,68.05,166.44,-31.88,99,85,2.33,overcast clouds,0.0,0.0
201,Norman Wells,CA,2020-02-23 18:03:45,65.28,-126.83,5.0,84,90,5.82,light snow,0.0,0.0
202,Atocha,BO,2020-02-23 18:03:45,-20.93,-66.23,61.21,42,60,10.78,light rain,0.31,0.0
203,Lumberton,US,2020-02-23 17:59:56,34.62,-79.01,62.01,30,1,6.93,clear sky,0.0,0.0
204,Sesheke,ZM,2020-02-23 18:03:46,-17.48,24.3,78.8,83,94,2.24,overcast clouds,0.0,0.0
205,Fukue,JP,2020-02-23 18:03:46,32.69,128.84,48.2,61,0,3.36,clear sky,0.0,0.0
206,Caravelas,BR,2020-02-23 18:03:46,-17.71,-39.25,78.6,89,99,15.14,light rain,0.44,0.0
207,Outjo,NA,2020-02-23 18:03:46,-20.12,16.15,76.5,61,97,6.91,overcast clouds,0.0,0.0
208,Nizwa,OM,2020-02-23 18:03:47,22.93,57.53,73.49,43,0,4.14,clear sky,0.0,0.0
209,Mount Darwin,ZW,2020-02-23 18:03:47,-16.77,31.58,72.03,85,100,1.34,light rain,1.56,0.0
210,Upernavik,GL,2020-02-23 17:58:43,72.79,-56.15,-16.91,80,0,6.64,clear sky,0.0,0.0
211,Yanam,IN,2020-02-23 18:03:47,16.73,82.22,80.6,65,20,5.82,haze,0.0,0.0
212,Acapulco,MX,2020-02-23 18:02:00,16.86,-99.89,84.2,74,5,8.05,clear sky,0.0,0.0
213,Srednekolymsk,RU,2020-02-23 18:03:48,67.45,153.68,-25.64,100,83,1.19,broken clouds,0.0,0.0
214,Shimoda,JP,2020-02-23 18:03:48,34.67,138.95,39.0,80,0,10.63,clear sky,0.0,0.0
215,Bonavista,CA,2020-02-23 18:03:48,48.65,-53.11,34.0,79,61,17.0,broken clouds,0.0,0.0
216,Kuantan,MY,2020-02-23 18:03:48,3.81,103.33,78.8,83,20,6.93,few clouds,0.0,0.0
217,Cidreira,BR,2020-02-23 18:03:49,-30.18,-50.21,71.91,62,1,12.26,clear sky,0.0,0.0
218,Faanui,PF,2020-02-23 18:03:49,-16.48,-151.75,82.67,70,66,10.54,broken clouds,0.0,0.0
219,Olafsvik,IS,2020-02-23 18:03:49,64.89,-23.71,31.48,74,100,8.81,overcast clouds,0.0,0.0
220,Kantunilkin,MX,2020-02-23 18:02:41,21.09,-87.45,78.8,65,75,9.17,broken clouds,0.0,0.0
221,Coquimbo,CL,2020-02-23 18:03:50,-29.95,-71.34,68.0,64,20,6.93,few clouds,0.0,0.0
222,Japura,ID,2020-02-23 18:03:50,-0.32,102.35,72.97,97,3,1.41,light rain,0.25,0.0
223,Les Cayes,HT,2020-02-23 18:03:50,18.2,-73.75,78.94,66,7,1.07,clear sky,0.0,0.0
224,Paamiut,GL,2020-02-23 18:03:50,61.99,-49.67,19.11,78,100,10.83,light snow,0.0,0.25
225,Ambilobe,MG,2020-02-23 18:03:50,-13.2,49.05,78.1,89,100,1.36,overcast clouds,0.0,0.0
226,Korsakovo,RU,2020-02-23 18:03:51,53.27,37.36,30.36,94,88,11.7,overcast clouds,0.0,0.0
227,Toppenish,US,2020-02-23 17:59:57,46.38,-120.31,55.99,57,40,16.11,scattered clouds,0.0,0.0
228,Tadine,NC,2020-02-23 17:59:55,-21.55,167.88,75.02,81,41,7.16,light rain,0.13,0.0
229,Kruisfontein,ZA,2020-02-23 18:03:52,-34.0,24.73,58.96,73,9,8.16,clear sky,0.0,0.0
230,Usinsk,RU,2020-02-23 18:03:52,65.99,57.53,28.51,89,100,29.53,light snow,0.0,0.13
231,Nichinan,JP,2020-02-23 18:03:52,31.6,131.37,41.0,65,0,6.87,clear sky,0.0,0.0
232,Mawlaik,MM,2020-02-23 18:03:52,23.63,94.42,64.49,71,5,0.54,clear sky,0.0,0.0
233,Talnakh,RU,2020-02-23 18:03:52,69.49,88.4,14.0,92,75,29.08,shower snow,0.0,0.0
234,Camacha,PT,2020-02-23 17:58:41,33.08,-16.33,68.0,72,20,17.22,few clouds,0.0,0.0
235,Egvekinot,RU,2020-02-23 17:58:54,66.32,-179.17,-31.85,92,1,2.21,clear sky,0.0,0.0
236,Fergus Falls,US,2020-02-23 18:03:53,46.28,-96.08,37.4,80,1,18.34,clear sky,0.0,0.0
237,Georgetown,MY,2020-02-23 17:56:06,5.41,100.34,80.6,65,20,10.29,few clouds,0.0,0.0
238,Faya,SA,2020-02-23 18:03:53,18.39,42.45,66.2,72,72,6.93,broken clouds,0.0,0.0
239,Narsipatnam,IN,2020-02-23 18:03:54,17.67,82.62,71.6,88,0,2.24,mist,0.0,0.0
240,Rawlins,US,2020-02-23 18:03:54,41.79,-107.24,35.6,63,1,2.21,clear sky,0.0,0.0
241,Aransas Pass,US,2020-02-23 18:03:54,27.91,-97.15,72.0,73,1,13.87,clear sky,0.0,0.0
242,Pokaran,IN,2020-02-23 18:03:55,26.92,71.92,72.09,35,0,7.65,clear sky,0.0,0.0
243,Carbonia,IT,2020-02-23 18:03:55,39.17,8.52,57.2,76,0,13.87,clear sky,0.0,0.0
244,Montreal,CA,2020-02-23 18:00:28,45.51,-73.59,45.0,60,20,10.29,few clouds,0.0,0.0
245,Dali,CN,2020-02-23 18:03:55,25.7,100.18,42.03,95,17,1.54,few clouds,0.0,0.0
246,Chardara,KZ,2020-02-23 18:03:55,41.25,67.97,50.27,79,100,4.56,light rain,0.13,0.0
247,Loukhi,RU,2020-02-23 18:03:56,66.08,33.04,32.88,98,100,8.14,overcast clouds,0.0,0.0
248,Tezu,IN,2020-02-23 18:03:56,27.92,96.17,63.73,45,50,4.09,scattered clouds,0.0,0.0
249,Bratsk,RU,2020-02-23 18:03:56,56.13,101.61,19.4,92,52,4.47,broken clouds,0.0,0.0
250,Chicama,PE,2020-02-23 18:03:56,-7.84,-79.15,75.2,78,75,8.05,haze,0.0,0.0
251,Bowen,AU,2020-02-23 18:03:57,-20.02,148.23,77.0,94,90,8.05,overcast clouds,0.0,0.0
252,Beringovskiy,RU,2020-02-23 18:03:57,63.05,179.32,-13.83,87,17,2.01,few clouds,0.0,0.0
253,Asyut,EG,2020-02-23 18:03:57,27.18,31.18,62.6,42,100,9.17,overcast clouds,0.0,0.0
254,Wichita Falls,US,2020-02-23 18:02:39,33.91,-98.49,55.0,76,75,12.75,light rain,0.0,0.0
255,Tocopilla,CL,2020-02-23 18:03:58,-22.09,-70.2,73.71,47,5,14.97,clear sky,0.0,0.0
256,Batagay-Alyta,RU,2020-02-23 18:03:58,67.8,130.41,-20.06,75,49,3.15,scattered clouds,0.0,0.0
257,Nanortalik,GL,2020-02-23 18:03:58,60.14,-45.24,26.92,89,100,6.69,light snow,0.0,0.81
258,Palmer,US,2020-02-23 18:03:58,42.16,-72.33,53.01,29,20,8.05,few clouds,0.0,0.0
259,Port Hueneme,US,2020-02-23 18:03:58,34.15,-119.2,62.01,76,1,3.98,clear sky,0.0,0.0
260,Wana,PK,2020-02-23 18:01:20,32.3,69.57,42.4,67,93,3.49,overcast clouds,0.0,0.0
261,Tubuala,PA,2020-02-23 18:04:00,9.52,-79.03,91.4,41,40,11.41,scattered clouds,0.0,0.0
262,Darab,IR,2020-02-23 18:04:00,28.75,54.54,60.94,40,54,1.23,broken clouds,0.0,0.0
263,Syracuse,IT,2020-02-23 18:03:01,37.09,15.28,57.2,71,0,4.7,clear sky,0.0,0.0
264,Maragogi,BR,2020-02-23 18:04:00,-9.01,-35.22,82.22,75,13,10.71,few clouds,0.0,0.0
265,Teahupoo,PF,2020-02-23 18:04:01,-17.83,-149.27,78.8,78,20,1.12,few clouds,0.0,0.0
266,Coracora,PE,2020-02-23 18:04:01,-15.03,-73.78,53.02,86,100,10.63,light rain,0.56,0.0
267,Horta,PT,2020-02-23 18:04:01,38.53,-28.63,62.6,67,40,5.82,scattered clouds,0.0,0.0
268,Xucheng,CN,2020-02-23 18:04:01,20.35,110.13,64.4,93,2,9.35,clear sky,0.0,0.0
269,Brigantine,US,2020-02-23 17:59:25,39.41,-74.36,59.0,17,1,8.05,clear sky,0.0,0.0
270,Mettet,BE,2020-02-23 18:04:02,50.32,4.66,52.0,87,100,24.16,light rain,2.63,0.0
271,Prykolotne,UA,2020-02-23 18:04:02,50.16,37.35,36.12,96,100,21.99,light rain,1.31,0.0
272,Inirida,CO,2020-02-23 18:04:02,3.87,-67.92,82.89,89,85,4.65,moderate rain,4.62,0.0
273,Fort Nelson,CA,2020-02-23 18:04:02,58.81,-122.7,12.2,66,20,4.7,few clouds,0.0,0.0
274,Donetsk,UA,2020-02-23 18:02:05,48.0,37.8,35.89,81,100,14.5,overcast clouds,0.0,0.0
275,Bairnsdale,AU,2020-02-23 18:04:03,-37.83,147.62,66.99,86,21,2.46,few clouds,0.0,0.0
276,Sobolevo,RU,2020-02-23 18:04:03,54.43,31.9,34.09,81,79,12.53,broken clouds,0.0,0.0
277,Quepos,CR,2020-02-23 18:04:03,9.42,-84.17,82.4,34,59,18.34,broken clouds,0.0,0.0
278,Codrington,AU,2020-02-23 18:04:04,-38.27,141.97,62.11,87,99,14.76,overcast clouds,0.0,0.0
279,Tupa,BR,2020-02-23 18:00:16,-21.93,-50.51,79.05,76,97,7.74,light rain,0.13,0.0
280,Tarauaca,BR,2020-02-23 18:00:58,-8.16,-70.77,84.42,53,68,4.59,broken clouds,0.0,0.0
281,Folldal,NO,2020-02-23 18:04:04,62.13,10.0,12.27,86,23,5.32,few clouds,0.0,0.0
282,Alofi,NU,2020-02-23 18:04:04,-19.06,-169.92,78.8,94,100,5.82,light rain,2.94,0.0
283,Hue,VN,2020-02-23 18:04:05,16.47,107.6,64.4,100,20,3.36,few clouds,0.0,0.0
284,Verkhnyaya Inta,RU,2020-02-23 18:04:05,65.98,60.31,21.24,79,53,11.56,broken clouds,0.0,0.0
285,Nsanje,MW,2020-02-23 18:04:05,-16.92,35.26,76.6,92,88,4.83,light rain,1.13,0.0
286,Katherine,AU,2020-02-23 18:04:05,-14.47,132.27,82.4,78,90,11.41,overcast clouds,0.0,0.0
287,San Luis,AR,2020-02-23 18:04:06,-33.3,-66.34,85.19,25,0,20.96,clear sky,0.0,0.0
288,Hluti,SZ,2020-02-23 18:04:06,-27.22,31.62,59.61,83,87,11.54,overcast clouds,0.0,0.0
289,Bereda,ES,2020-02-23 18:04:06,43.27,-7.54,54.0,81,20,4.7,few clouds,0.0,0.0
290,Vangaindrano,MG,2020-02-23 18:04:06,-23.35,47.6,75.27,95,100,2.57,light rain,0.75,0.0
291,Atbasar,KZ,2020-02-23 18:04:07,51.8,68.33,7.84,100,63,1.34,broken clouds,0.0,0.0
292,Bathsheba,BB,2020-02-23 18:04:07,13.22,-59.52,86.0,66,40,16.11,shower rain,0.0,0.0
293,Port Lincoln,AU,2020-02-23 18:03:00,-34.73,135.87,66.18,78,79,4.99,broken clouds,0.0,0.0
294,Port Elizabeth,ZA,2020-02-23 17:58:38,-33.92,25.57,64.4,68,20,6.93,few clouds,0.0,0.0
295,Kieta,PG,2020-02-23 17:59:51,-6.22,155.63,81.1,78,81,7.0,moderate rain,3.12,0.0
296,Veraval,IN,2020-02-23 18:04:11,20.9,70.37,72.99,29,0,8.59,clear sky,0.0,0.0
297,Bourail,NC,2020-02-23 18:00:21,-21.57,165.48,71.55,86,71,3.24,broken clouds,0.0,0.0
298,Grindavik,IS,2020-02-23 17:56:37,63.84,-22.43,32.0,64,90,17.22,light shower snow,0.0,0.0
299,Port-Gentil,GA,2020-02-23 18:01:01,-0.72,8.78,84.2,83,20,9.17,few clouds,0.0,0.0
300,Syasstroy,RU,2020-02-23 18:04:12,60.14,32.57,36.41,89,100,8.63,light snow,0.0,0.12
301,North Bend,US,2020-02-23 18:02:09,43.41,-124.22,51.01,93,90,19.46,light rain,0.0,0.0
302,Pemberton,CA,2020-02-23 18:04:12,50.32,-122.8,30.2,100,90,3.24,overcast clouds,0.0,0.0
303,Khasan,RU,2020-02-23 18:04:13,42.43,130.64,30.34,54,98,3.44,overcast clouds,0.0,0.0
304,Lazaro Cardenas,MX,2020-02-23 18:04:13,17.96,-102.2,83.68,56,0,6.73,clear sky,0.0,0.0
305,Fortuna,US,2020-02-23 18:04:13,40.6,-124.16,53.01,76,40,3.24,scattered clouds,0.0,0.0
306,Matagami,CA,2020-02-23 18:02:31,49.75,-77.63,33.8,59,1,3.36,clear sky,0.0,0.0
307,Guanica,PR,2020-02-23 18:04:14,17.97,-66.91,82.99,59,75,16.11,broken clouds,0.0,0.0
308,Mayo,US,2020-02-23 18:04:14,38.89,-76.51,57.99,12,5,3.36,clear sky,0.0,0.0
309,Saint-Pierre,RE,2020-02-23 17:56:27,-21.34,55.48,78.8,78,20,2.24,few clouds,0.0,0.0
310,Nagapattinam,IN,2020-02-23 18:00:06,10.77,79.83,79.83,79,87,14.5,overcast clouds,0.0,0.0
311,Kloulklubed,PW,2020-02-23 18:04:14,7.04,134.26,80.6,83,75,11.41,broken clouds,0.0,0.0
312,Lewisporte,CA,2020-02-23 18:04:15,49.25,-55.05,35.6,55,40,25.28,scattered clouds,0.0,0.0
313,Ucluelet,CA,2020-02-23 18:00:29,48.93,-125.55,44.01,87,90,14.99,light intensity shower rain,0.0,0.0
314,Tres Lagoas,BR,2020-02-23 18:01:10,-20.75,-51.68,79.81,78,87,3.09,overcast clouds,0.0,0.0
315,Hokitika,NZ,2020-02-23 18:04:15,-42.72,170.97,57.11,84,35,8.46,scattered clouds,0.0,0.0
316,Okha,RU,2020-02-23 18:04:16,53.57,142.95,-5.49,99,0,6.08,clear sky,0.0,0.0
317,Saldanha,ZA,2020-02-23 18:04:16,-33.01,17.94,86.0,23,0,16.11,clear sky,0.0,0.0
318,Honiara,SB,2020-02-23 18:04:16,-9.43,159.95,73.56,91,4,2.68,clear sky,0.0,0.0
319,La Rioja,ES,2020-02-23 18:04:16,42.25,-2.5,66.2,34,40,2.24,scattered clouds,0.0,0.0
320,Lauria,IT,2020-02-23 18:04:17,40.05,15.84,35.71,90,84,5.39,broken clouds,0.0,0.0
321,Wasilla,US,2020-02-23 18:04:17,61.58,-149.44,15.8,78,90,5.82,light snow,0.0,0.0
322,Mahebourg,MU,2020-02-23 17:58:38,-20.41,57.7,78.01,94,75,9.17,shower rain,0.0,0.0
323,Baherden,TM,2020-02-23 18:04:17,38.44,57.43,56.61,56,2,8.77,clear sky,0.0,0.0
324,Coihaique,CL,2020-02-23 18:04:17,-45.58,-72.07,68.0,40,52,8.05,broken clouds,0.0,0.0
325,Wanning,CN,2020-02-23 17:59:27,18.8,110.4,68.9,90,57,8.05,light rain,0.94,0.0
326,Novoagansk,RU,2020-02-23 18:04:18,61.94,76.66,21.6,93,100,14.0,light snow,0.0,0.13
327,Rio Grande Da Serra,BR,2020-02-23 18:04:18,-23.74,-46.4,75.2,78,90,5.82,overcast clouds,0.0,0.0
328,Kushiro,JP,2020-02-23 18:04:18,42.98,144.37,28.72,70,0,9.48,clear sky,0.0,0.0
329,Vila Velha,BR,2020-02-23 18:00:17,-20.33,-40.29,80.6,65,90,14.99,overcast clouds,0.0,0.0
330,Atambua,ID,2020-02-23 18:04:19,-9.11,124.89,75.07,86,44,2.13,scattered clouds,0.0,0.0
331,Adrar,MR,2020-02-23 18:04:19,20.5,-10.07,92.03,8,97,9.62,overcast clouds,0.0,0.0
332,Kununurra,AU,2020-02-23 18:04:19,-15.77,128.73,78.8,88,21,3.36,few clouds,0.0,0.0
333,Bima,ID,2020-02-23 18:04:20,-8.47,118.72,72.14,97,100,1.81,overcast clouds,0.0,0.0
334,Buin,CL,2020-02-23 18:04:20,-33.73,-70.75,80.6,34,0,6.93,clear sky,0.0,0.0
335,Ancud,CL,2020-02-23 18:04:20,-41.87,-73.82,62.6,67,75,10.29,broken clouds,0.0,0.0
336,Sengiley,RU,2020-02-23 18:04:20,53.96,48.79,28.4,100,90,24.61,light snow,0.0,0.0
337,San Quintin,MX,2020-02-23 18:04:21,30.48,-115.95,60.87,65,0,17.43,clear sky,0.0,0.0
338,Okhotsk,RU,2020-02-23 18:03:30,59.38,143.3,-14.03,84,0,5.75,clear sky,0.0,0.0
339,Fallon,US,2020-02-23 18:04:21,39.47,-118.78,52.0,47,1,6.51,clear sky,0.0,0.0
340,Altayskoye,RU,2020-02-23 18:04:21,51.95,85.33,16.92,96,98,2.21,light snow,0.0,0.25
341,Garelochhead,GB,2020-02-23 18:04:21,56.08,-4.83,43.0,86,75,8.05,broken clouds,0.0,0.0
342,Narsaq,GL,2020-02-23 18:04:22,60.92,-46.05,24.8,58,100,8.05,snow,0.0,1.81
343,Yumen,CN,2020-02-23 18:04:22,40.28,97.2,32.5,40,84,21.41,broken clouds,0.0,0.0
344,Savinka,RU,2020-02-23 18:04:22,50.08,47.1,34.23,97,99,15.32,light snow,0.0,0.25
345,Mugur-Aksy,RU,2020-02-23 18:04:22,50.35,90.5,8.38,95,100,4.07,light snow,0.0,0.63
346,Batemans Bay,AU,2020-02-23 18:04:22,-35.72,150.18,64.99,92,79,4.59,broken clouds,0.0,0.0
347,Bonnyville,CA,2020-02-23 18:04:23,54.27,-110.73,21.2,53,5,5.82,clear sky,0.0,0.0
348,Guamuchil,MX,2020-02-23 18:04:16,25.47,-108.1,79.0,64,46,4.0,scattered clouds,0.0,0.0
349,Seoul,KR,2020-02-23 18:01:21,37.57,126.98,35.6,56,90,1.12,overcast clouds,0.0,0.0
350,Plouzane,FR,2020-02-23 18:04:23,48.38,-4.62,53.6,93,90,12.75,light intensity drizzle,0.0,0.0
351,Shalakusha,RU,2020-02-23 18:04:24,62.22,40.25,31.35,89,99,7.83,overcast clouds,0.0,0.0
352,Mizdah,LY,2020-02-23 18:04:24,31.45,12.98,54.59,46,0,8.05,clear sky,0.0,0.0
353,Kendal,GB,2020-02-23 18:04:24,54.33,-2.75,42.01,67,52,1.01,broken clouds,0.0,0.0
354,Paragominas,BR,2020-02-23 18:04:24,-2.97,-47.48,86.43,63,64,5.73,broken clouds,0.0,0.0
355,Gimli,CA,2020-02-23 18:03:03,50.63,-96.99,36.0,76,81,14.0,broken clouds,0.0,0.0
356,Kholm,RU,2020-02-23 18:04:25,59.27,32.85,35.55,92,100,10.18,light snow,0.0,0.25
357,Kuruman,ZA,2020-02-23 18:04:25,-27.45,23.43,73.99,50,19,10.76,few clouds,0.0,0.0
358,Ternate,ID,2020-02-23 18:04:25,0.8,127.4,72.66,92,88,3.33,overcast clouds,0.0,0.0
359,Namibe,AO,2020-02-23 18:04:25,-15.2,12.15,75.15,79,93,11.72,overcast clouds,0.0,0.0
360,Skibbereen,IE,2020-02-23 18:04:26,51.55,-9.27,44.6,87,75,4.7,light rain,0.0,0.0
361,Havoysund,NO,2020-02-23 18:04:26,71.0,24.66,33.8,100,90,3.36,fog,0.0,0.0
362,Belyy Yar,RU,2020-02-23 18:03:22,53.6,91.39,14.0,85,9,2.15,clear sky,0.0,0.0
363,Honningsvag,NO,2020-02-23 18:00:00,70.98,25.97,33.8,80,75,1.12,broken clouds,0.0,0.0
364,Port Macquarie,AU,2020-02-23 18:04:26,-31.43,152.92,68.0,94,90,5.82,overcast clouds,0.0,0.0
365,Talen,IN,2020-02-23 18:04:27,23.57,76.72,67.12,40,0,7.78,clear sky,0.0,0.0
366,Gediz,TR,2020-02-23 18:04:27,39.04,29.41,33.75,83,16,4.56,few clouds,0.0,0.0
367,Mount Isa,AU,2020-02-23 18:04:27,-20.73,139.5,80.6,74,90,11.41,overcast clouds,0.0,0.0
368,Machilipatnam,IN,2020-02-23 18:04:27,16.17,81.13,75.2,88,78,2.24,mist,0.0,0.0
369,Lakota,CI,2020-02-23 18:04:27,5.85,-5.69,89.92,54,91,6.85,overcast clouds,0.0,0.0
370,Beni Suef,EG,2020-02-23 18:04:28,29.07,31.1,52.97,63,71,5.75,broken clouds,0.0,0.0
371,May Pen,JM,2020-02-23 18:04:28,17.96,-77.25,84.2,66,40,8.05,scattered clouds,0.0,0.0
372,Dakar,SN,2020-02-23 18:04:28,14.69,-17.44,78.8,61,95,16.11,overcast clouds,0.0,0.0
373,Santa Maria,BR,2020-02-23 18:02:42,-29.68,-53.81,78.8,50,40,13.87,scattered clouds,0.0,0.0
374,Bayan,CN,2020-02-23 18:04:29,46.08,127.4,13.17,91,47,8.9,scattered clouds,0.0,0.0
375,Akdagmadeni,TR,2020-02-23 18:04:29,39.66,35.88,25.97,96,36,2.64,scattered clouds,0.0,0.0
376,Abalak,RU,2020-02-23 18:04:29,58.13,68.59,20.26,92,63,6.06,broken clouds,0.0,0.0
377,Half Moon Bay,US,2020-02-23 18:04:29,37.46,-122.43,57.0,71,75,18.75,broken clouds,0.0,0.0
378,Mildura,AU,2020-02-23 18:04:30,-34.2,142.15,75.2,60,15,6.93,few clouds,0.0,0.0
379,Sernur,RU,2020-02-23 18:04:30,56.93,49.15,28.17,91,100,22.1,light snow,0.0,0.44
380,Bismil,TR,2020-02-23 18:04:30,37.85,40.67,55.4,81,40,3.36,scattered clouds,0.0,0.0
381,Zacatepec,MX,2020-02-23 18:04:30,18.65,-99.2,87.01,34,5,2.24,smoke,0.0,0.0
382,Port Charlotte,US,2020-02-23 18:02:22,26.98,-82.09,78.01,49,1,10.29,clear sky,0.0,0.0
383,Santa Cruz,BO,2020-02-23 18:04:31,-17.8,-63.17,82.4,45,40,11.41,scattered clouds,0.0,0.0
384,Broome,US,2020-02-23 18:04:31,42.25,-75.83,48.99,32,1,6.93,clear sky,0.0,0.0
385,Lucea,JM,2020-02-23 18:04:31,18.45,-78.17,84.2,70,40,16.11,scattered clouds,0.0,0.0
386,Kuzhorskaya,RU,2020-02-23 18:04:31,44.68,40.31,35.82,90,100,0.87,overcast clouds,0.0,0.0
387,Maceio,BR,2020-02-23 18:00:40,-9.67,-35.74,89.6,66,20,13.87,few clouds,0.0,0.0
388,Bataipora,BR,2020-02-23 18:04:32,-22.3,-53.27,78.21,74,95,2.59,overcast clouds,0.0,0.0
389,Sao Filipe,CV,2020-02-23 18:04:32,14.9,-24.5,68.52,83,100,18.84,overcast clouds,0.0,0.0
390,Klyavlino,RU,2020-02-23 18:04:32,54.26,52.03,23.61,93,100,20.74,light snow,0.0,0.69
391,Alta Floresta,BR,2020-02-23 18:04:32,-9.88,-56.09,77.0,100,90,3.36,light rain,0.0,0.0
392,Padrauna,IN,2020-02-23 18:04:32,26.9,83.98,67.86,61,15,5.14,few clouds,0.0,0.0
393,Ostra,IT,2020-02-23 18:04:33,43.61,13.16,53.01,87,64,1.12,mist,0.0,0.0
394,Roald,NO,2020-02-23 18:04:33,62.58,6.13,35.6,93,75,10.29,shower rain,0.0,0.0
395,Udala,ES,2020-02-23 18:04:33,43.08,-2.51,61.0,44,0,8.05,clear sky,0.0,0.0
396,Uaua,BR,2020-02-23 18:04:33,-9.84,-39.48,88.23,49,40,3.83,light rain,1.56,0.0
397,Bathurst,AU,2020-02-23 18:04:27,-33.42,149.58,55.0,88,97,2.86,overcast clouds,0.0,0.0
398,Ilhabela,BR,2020-02-23 18:04:34,-23.78,-45.36,76.21,64,95,10.45,overcast clouds,0.0,0.0
399,Loa Janan,ID,2020-02-23 18:04:35,-0.58,117.09,74.21,89,98,2.77,overcast clouds,0.0,0.0
400,Kamenka,RU,2020-02-23 18:04:35,51.32,42.77,33.01,97,100,11.99,snow,0.0,1.81
401,Sarakhs,IR,2020-02-23 18:04:35,36.54,61.16,55.4,71,40,9.17,scattered clouds,0.0,0.0
402,Grand Gaube,MU,2020-02-23 18:04:35,-20.01,57.66,78.01,94,75,9.17,shower rain,0.0,0.0
403,Scarborough,GB,2020-02-23 18:04:35,54.28,-0.4,43.0,69,19,13.87,few clouds,0.0,0.0
404,Nisia Floresta,BR,2020-02-23 18:04:36,-6.09,-35.21,89.6,59,20,14.99,few clouds,0.0,0.0
405,Askarovo,RU,2020-02-23 18:04:36,53.34,58.51,14.0,92,90,8.95,fog,0.0,0.0
406,Nouadhibou,MR,2020-02-23 18:00:02,20.93,-17.03,64.4,88,100,12.75,overcast clouds,0.0,0.0
407,Baruun-Urt,MN,2020-02-23 17:58:42,46.68,113.28,14.31,76,91,2.37,overcast clouds,0.0,0.0
408,Nyimba,ZM,2020-02-23 18:04:36,-14.56,30.81,73.99,83,61,2.62,broken clouds,0.0,0.0
409,Encinitas,US,2020-02-23 18:02:42,33.04,-117.29,62.6,67,75,3.36,broken clouds,0.0,0.0
410,Portel,BR,2020-02-23 18:04:37,-1.94,-50.82,90.59,54,36,6.58,scattered clouds,0.0,0.0
411,Sipovo,BA,2020-02-23 18:02:02,44.28,17.08,43.45,73,97,6.02,overcast clouds,0.0,0.0
412,Bakel,SN,2020-02-23 18:04:38,14.9,-12.46,105.22,10,63,7.4,broken clouds,0.0,0.0
413,Waitati,NZ,2020-02-23 18:04:38,-45.75,170.57,57.0,85,94,3.11,overcast clouds,0.0,0.0
414,Mandali,IQ,2020-02-23 18:04:38,33.75,45.55,64.67,42,53,3.98,broken clouds,0.0,0.0
415,Ambon,ID,2020-02-23 18:04:01,-3.7,128.18,81.36,82,67,13.04,moderate rain,3.25,0.0
416,Horsham,GB,2020-02-23 18:04:38,51.06,-0.33,51.8,57,20,10.29,few clouds,0.0,0.0
417,Miajadas,ES,2020-02-23 18:04:39,39.15,-5.91,68.0,35,20,5.99,few clouds,0.0,0.0
418,Talcahuano,CL,2020-02-23 18:04:39,-36.72,-73.12,60.8,77,90,4.7,overcast clouds,0.0,0.0
419,Jacareacanga,BR,2020-02-23 18:04:39,-6.22,-57.75,75.96,95,100,2.33,light rain,0.44,0.0
420,Quatre Cocos,MU,2020-02-23 18:04:39,-20.21,57.76,78.01,94,75,9.17,shower rain,0.0,0.0
421,Rio Grande,BR,2020-02-23 18:04:39,-32.03,-52.1,78.8,47,20,9.17,few clouds,0.0,0.0
422,Santa Isabel,BR,2020-02-23 18:00:57,-23.32,-46.22,75.2,73,90,8.05,overcast clouds,0.0,0.0
423,Parana,AR,2020-02-23 18:03:05,-31.73,-60.52,84.0,37,0,5.01,clear sky,0.0,0.0
424,Los Llanos De Aridane,ES,2020-02-23 18:04:40,28.66,-17.92,73.4,56,90,9.17,haze,0.0,0.0
425,Silifke,TR,2020-02-23 18:04:40,36.38,33.93,45.28,74,28,6.22,scattered clouds,0.0,0.0
426,Yar-Sale,RU,2020-02-23 18:04:41,66.83,70.83,30.34,85,100,24.94,overcast clouds,0.0,0.0
427,Ayaviri,PE,2020-02-23 18:00:08,-14.89,-70.59,58.51,53,92,1.92,light rain,1.56,0.0
428,Glasgow,GB,2020-02-23 18:04:41,55.87,-4.26,43.0,86,75,8.05,broken clouds,0.0,0.0
429,Rach Gia,VN,2020-02-23 18:04:41,10.02,105.08,77.0,73,2,6.93,clear sky,0.0,0.0
430,Havre-Saint-Pierre,CA,2020-02-23 18:04:41,50.23,-63.6,32.0,89,75,12.75,broken clouds,0.0,0.0
431,Progreso,MX,2020-02-23 18:04:42,21.28,-89.67,81.0,50,75,6.93,broken clouds,0.0,0.0
432,Sabha,LY,2020-02-23 18:04:42,27.04,14.43,57.2,29,0,9.37,clear sky,0.0,0.0
433,Fryazino,RU,2020-02-23 18:04:42,55.96,38.05,37.0,89,51,13.42,broken clouds,0.0,0.0
434,Mangrol,IN,2020-02-23 17:55:07,21.12,70.12,78.33,53,0,12.73,clear sky,0.0,0.0
435,Marrakesh,MA,2020-02-23 18:00:44,31.63,-8.01,82.4,15,20,5.82,few clouds,0.0,0.0
436,Kavaratti,IN,2020-02-23 18:04:43,10.57,72.64,82.09,73,94,5.03,overcast clouds,0.0,0.0
437,Yichang,CN,2020-02-23 18:04:43,30.71,111.28,54.66,89,24,2.17,few clouds,0.0,0.0
438,Kollam,IN,2020-02-23 18:02:01,8.88,76.6,82.4,74,40,5.82,haze,0.0,0.0
439,Aasiaat,GL,2020-02-23 18:04:43,68.71,-52.87,-5.26,78,0,5.7,clear sky,0.0,0.0
440,Atar,MR,2020-02-23 18:04:44,20.52,-13.05,92.32,8,100,7.14,overcast clouds,0.0,0.0
441,Leningradskiy,RU,2020-02-23 18:04:44,69.38,178.42,-12.39,75,100,6.31,overcast clouds,0.0,0.0
442,Mecca,SA,2020-02-23 17:58:18,21.43,39.83,74.35,62,100,5.86,overcast clouds,0.0,0.0
443,Gunjur,GM,2020-02-23 18:04:44,13.2,-16.73,84.2,51,72,9.17,broken clouds,0.0,0.0
444,Manokwari,ID,2020-02-23 18:04:45,-0.87,134.08,73.96,77,100,4.14,overcast clouds,0.0,0.0
445,Saint-Francois,FR,2020-02-23 18:04:45,46.42,3.91,57.2,58,20,5.82,few clouds,0.0,0.0
446,Dawei,MM,2020-02-23 18:04:45,14.08,98.2,79.95,64,79,7.74,broken clouds,0.0,0.0
447,Boden,SE,2020-02-23 18:04:45,65.83,21.69,35.6,55,71,14.99,broken clouds,0.0,0.0
448,Zarate,AR,2020-02-23 18:04:45,-34.1,-59.03,80.01,47,40,8.05,scattered clouds,0.0,0.0
449,Klaksvik,FO,2020-02-23 18:04:46,62.23,-6.59,37.4,74,80,24.16,light snow,0.0,0.69
450,Porto Novo,BJ,2020-02-23 18:04:46,6.5,2.6,87.8,79,20,12.75,few clouds,0.0,0.0
451,Hamilton,US,2020-02-23 18:04:46,39.18,-84.53,50.0,42,90,6.93,overcast clouds,0.0,0.0
452,Qaqortoq,GL,2020-02-23 18:04:46,60.72,-46.03,24.8,58,100,8.05,light snow,0.0,1.0
453,Nalut,LY,2020-02-23 18:04:47,30.33,10.85,55.78,40,0,8.43,clear sky,0.0,0.0
454,Meulaboh,ID,2020-02-23 18:04:47,4.14,96.13,83.59,71,20,4.21,few clouds,0.0,0.0
455,Conceicao Da Barra,BR,2020-02-23 18:04:02,-18.59,-39.73,77.77,89,100,15.73,light rain,2.75,0.0
456,Milkovo,RU,2020-02-23 18:04:47,54.72,158.62,-4.72,99,100,0.45,light snow,0.0,0.19
457,Henties Bay,NA,2020-02-23 18:04:47,-22.12,14.28,64.0,91,0,3.0,clear sky,0.0,0.0
458,Ola,RU,2020-02-23 18:04:48,59.58,151.28,-6.75,93,82,5.93,broken clouds,0.0,0.0
459,Limbang,MY,2020-02-23 18:04:48,4.75,115.0,80.6,83,75,9.17,broken clouds,0.0,0.0
460,Xushan,CN,2020-02-23 18:04:48,30.18,121.25,55.99,76,8,8.95,clear sky,0.0,0.0
461,Beloha,MG,2020-02-23 18:04:48,-25.17,45.05,77.16,87,53,1.74,light rain,2.63,0.0
462,Gilbues,BR,2020-02-23 18:04:48,-9.83,-45.34,83.57,70,58,2.39,moderate rain,4.81,0.0
463,Dzhebariki-Khaya,RU,2020-02-23 18:04:49,62.22,135.8,-6.47,98,93,2.98,overcast clouds,0.0,0.0
464,Hof,DE,2020-02-23 18:04:49,50.32,11.92,53.01,87,90,26.4,light intensity drizzle,0.0,0.0
465,Dapaong,TG,2020-02-23 18:04:49,10.86,0.2,95.43,11,0,9.19,clear sky,0.0,0.0
466,Ayan,RU,2020-02-23 18:04:49,56.45,138.17,-3.01,75,60,3.2,broken clouds,0.0,0.0
467,Beltangadi,IN,2020-02-23 18:04:49,13.98,75.3,70.7,35,73,5.48,broken clouds,0.0,0.0
468,Shangrao,CN,2020-02-23 18:04:50,28.45,117.97,55.42,91,28,4.27,scattered clouds,0.0,0.0
469,Ushumun,RU,2020-02-23 18:04:50,52.78,126.53,6.55,96,100,2.19,light snow,0.0,0.25
470,Andover,GB,2020-02-23 18:04:50,51.21,-1.48,51.8,66,20,3.36,few clouds,0.0,0.0
471,Kabwe,ZM,2020-02-23 18:04:50,-14.45,28.45,71.11,91,23,4.9,light rain,2.0,0.0
472,La Palma,US,2020-02-23 18:04:50,33.85,-118.05,64.4,55,75,3.36,broken clouds,0.0,0.0
473,Tecoanapa,MX,2020-02-23 18:04:51,16.52,-98.75,92.88,34,0,8.63,clear sky,0.0,0.0
474,Georgiyevskoye,RU,2020-02-23 18:04:51,58.73,45.02,30.99,94,100,14.76,light snow,0.0,1.25
475,San Vicente,AR,2020-02-23 18:04:51,-26.62,-54.13,84.0,55,100,3.8,overcast clouds,0.0,0.0
476,Vrangel,RU,2020-02-23 18:04:51,42.73,133.08,35.24,66,71,7.07,broken clouds,0.0,0.0
477,Chifeng,CN,2020-02-23 18:04:51,42.27,118.96,24.33,75,54,1.68,broken clouds,0.0,0.0
478,Ardeoani,RO,2020-02-23 18:04:52,46.53,26.6,48.2,57,100,6.93,overcast clouds,0.0,0.0
479,Juneau,US,2020-02-23 18:04:52,58.3,-134.42,35.01,86,90,14.99,light snow,0.0,0.0
480,Almaznyy,RU,2020-02-23 18:04:52,48.04,40.05,35.6,96,40,17.9,scattered clouds,0.0,0.0
481,Husavik,IS,2020-02-23 17:58:41,66.04,-17.34,24.62,63,1,6.91,clear sky,0.0,0.0
482,Udalguri,IN,2020-02-23 18:04:53,26.77,92.13,50.13,57,0,8.08,light rain,0.19,0.0
483,Udachnyy,RU,2020-02-23 18:02:00,66.42,112.4,1.4,91,100,4.47,overcast clouds,0.0,0.0
484,Jingdezhen,CN,2020-02-23 18:04:53,29.29,117.21,55.49,87,79,3.2,broken clouds,0.0,0.0
485,Saku,JP,2020-02-23 18:04:53,36.22,138.48,34.0,99,0,2.51,clear sky,0.0,0.0
486,Rincon,US,2020-02-23 18:02:46,32.3,-81.24,64.0,28,1,2.3,clear sky,0.0,0.0
487,Kaeo,NZ,2020-02-23 18:04:54,-35.1,173.78,57.0,100,0,18.45,clear sky,0.0,0.0
488,Martinsville,US,2020-02-23 18:04:54,36.69,-79.87,60.01,22,1,5.82,clear sky,0.0,0.0
489,Comodoro Rivadavia,AR,2020-02-23 18:00:50,-45.87,-67.5,68.0,52,26,12.75,scattered clouds,0.0,0.0
490,Wakkanai,JP,2020-02-23 18:04:54,45.41,141.67,29.75,62,33,17.56,scattered clouds,0.0,0.0
491,Pacific Grove,US,2020-02-23 18:03:00,36.62,-121.92,57.0,76,90,9.17,overcast clouds,0.0,0.0
492,Leshukonskoye,RU,2020-02-23 18:04:55,64.9,45.76,33.13,94,100,17.83,light snow,0.0,0.94
493,Henderson,US,2020-02-23 18:04:55,36.04,-114.98,57.99,66,1,6.93,clear sky,0.0,0.0
494,Buctzotz,MX,2020-02-23 18:04:55,21.2,-88.78,82.17,46,11,6.93,few clouds,0.0,0.0
495,Sept-Iles,CA,2020-02-23 18:04:55,50.2,-66.38,35.01,89,75,9.17,light snow,0.0,0.0
496,Kentau,KZ,2020-02-23 18:04:56,43.52,68.51,34.11,66,95,4.59,overcast clouds,0.0,0.0
497,Champasak,LA,2020-02-23 18:04:56,14.75,106.0,64.67,58,0,2.28,clear sky,0.0,0.0
498,Split,HR,2020-02-23 18:04:56,43.51,16.44,52.0,71,83,4.7,broken clouds,0.0,0.0
499,Joshimath,IN,2020-02-23 18:04:56,30.57,79.57,28.08,53,70,8.99,broken clouds,0.0,0.0
500,Waingapu,ID,2020-02-23 18:04:57,-9.66,120.26,83.37,77,99,17.98,overcast clouds,0.0,0.0
501,Bangui,CF,2020-02-23 18:04:57,4.36,18.55,98.6,47,71,3.36,broken clouds,0.0,0.0
502,Srivardhan,IN,2020-02-23 18:04:57,18.03,73.02,76.69,51,0,5.17,clear sky,0.0,0.0
503,Mattru,SL,2020-02-23 18:04:57,7.62,-11.83,87.3,62,37,11.21,scattered clouds,0.0,0.0
504,Puerto Padre,CU,2020-02-23 18:04:57,21.2,-76.6,78.8,61,75,20.8,broken clouds,0.0,0.0
505,Beohari,IN,2020-02-23 18:04:58,24.05,81.38,65.57,81,4,1.83,clear sky,0.0,0.0
506,Samandag,TR,2020-02-23 18:04:58,36.08,35.98,53.6,87,75,3.36,broken clouds,0.0,0.0
507,Schaumburg,US,2020-02-23 18:04:58,42.03,-88.08,52.0,69,1,9.17,clear sky,0.0,0.0
508,Mnogovershinnyy,RU,2020-02-23 18:04:58,53.94,139.92,-2.72,83,43,1.86,scattered clouds,0.0,0.0
509,Tepechitlan,MX,2020-02-23 18:04:59,21.67,-103.33,71.69,33,0,9.4,clear sky,0.0,0.0
510,Pouembout,NC,2020-02-23 18:04:59,-21.13,164.9,69.17,92,79,4.27,broken clouds,0.0,0.0
511,Dingle,PH,2020-02-23 18:04:59,11.0,122.67,72.12,92,27,10.04,light rain,0.38,0.0
512,Matheran,IN,2020-02-23 18:04:59,18.98,73.27,82.4,39,0,5.82,smoke,0.0,0.0
513,Napasar,IN,2020-02-23 18:04:59,27.97,73.55,68.54,39,0,4.47,clear sky,0.0,0.0
514,Nizhniy Kuranakh,RU,2020-02-23 18:05:00,58.84,125.49,5.54,97,97,2.55,light snow,0.0,0.19
515,Kandrian,PG,2020-02-23 18:05:00,-6.22,149.55,75.18,94,34,4.52,light rain,1.19,0.0
516,Caluquembe,AO,2020-02-23 18:05:00,-13.78,14.68,63.64,77,95,4.29,overcast clouds,0.0,0.0
517,Brasilia,BR,2020-02-23 18:03:12,-15.78,-47.93,75.2,78,75,4.7,thunderstorm,0.0,0.0
518,Nicoya,CR,2020-02-23 18:05:00,10.15,-85.45,91.4,33,8,25.28,clear sky,0.0,0.0
519,Kuusamo,FI,2020-02-23 18:05:01,65.97,29.18,28.4,92,75,10.29,light snow,0.0,0.0
520,Constitucion,CL,2020-02-23 18:05:01,-35.33,-72.42,64.58,70,26,6.02,scattered clouds,0.0,0.0
521,Ust-Barguzin,RU,2020-02-23 18:05:01,53.45,108.98,2.23,95,13,1.34,few clouds,0.0,0.0
522,Tolna,HU,2020-02-23 18:05:01,46.43,18.78,50.0,56,40,4.7,scattered clouds,0.0,0.0
523,Alice Springs,AU,2020-02-23 18:04:34,-23.7,133.88,75.2,29,25,6.93,scattered clouds,0.0,0.0
524,Geraldton,AU,2020-02-23 18:05:02,-28.77,114.6,71.6,94,0,2.24,clear sky,0.0,0.0
525,Virginia Beach,US,2020-02-23 18:04:28,36.85,-75.98,60.01,33,1,5.82,clear sky,0.0,0.0
526,Trairi,BR,2020-02-23 18:05:02,-3.28,-39.27,83.08,70,94,4.32,overcast clouds,0.0,0.0
527,Mahibadhoo,MV,2020-02-23 18:05:03,3.78,72.97,83.32,80,52,20.02,broken clouds,0.0,0.0
528,Awbari,LY,2020-02-23 18:05:03,26.59,12.78,56.25,44,0,7.9,clear sky,0.0,0.0
529,Ambunti,PG,2020-02-23 18:05:03,-4.24,142.84,74.37,97,100,2.04,light rain,0.44,0.0
530,La Ronge,CA,2020-02-23 18:05:03,55.1,-105.28,26.6,63,20,9.17,few clouds,0.0,0.0
531,Kalmunai,LK,2020-02-23 18:04:03,7.42,81.82,81.18,79,41,18.1,light rain,0.25,0.0
532,Manama,BH,2020-02-23 18:01:23,26.22,50.58,71.6,88,60,9.17,broken clouds,0.0,0.0
533,Jiazi,CN,2020-02-23 18:05:04,22.88,116.07,59.11,82,34,7.45,scattered clouds,0.0,0.0
534,Salta,AR,2020-02-23 18:03:24,-24.79,-65.41,68.0,64,75,6.93,broken clouds,0.0,0.0
535,Gigmoto,PH,2020-02-23 18:05:05,13.78,124.39,79.43,81,1,20.6,light rain,0.5,0.0
536,Teknaf,BD,2020-02-23 18:05:05,20.86,92.31,60.57,58,0,1.74,clear sky,0.0,0.0
537,Nago,JP,2020-02-23 18:05:05,26.59,127.98,62.6,71,40,3.36,scattered clouds,0.0,0.0
538,Magomeni,TZ,2020-02-23 18:05:06,-6.8,39.25,84.2,79,75,19.46,broken clouds,0.0,0.0
539,Puerto Madryn,AR,2020-02-23 18:03:21,-42.77,-65.04,82.65,24,0,21.14,clear sky,0.0,0.0
540,Baft,IR,2020-02-23 18:05:06,29.23,56.61,49.17,39,0,6.24,clear sky,0.0,0.0
541,Trinidad,BO,2020-02-23 18:05:07,-14.83,-64.9,82.4,54,75,11.41,broken clouds,0.0,0.0
542,Emba,KZ,2020-02-23 18:05:07,48.83,58.14,17.26,94,100,9.01,overcast clouds,0.0,0.0
543,General Roca,AR,2020-02-23 18:05:07,-39.03,-67.58,84.2,35,0,2.24,clear sky,0.0,0.0
544,Pianco,BR,2020-02-23 18:05:07,-7.2,-37.93,89.85,54,87,1.95,light rain,0.63,0.0
545,Bako,ET,2020-02-23 18:05:08,5.78,36.57,73.33,49,76,6.87,broken clouds,0.0,0.0
546,Karasjok,NO,2020-02-23 18:05:08,69.47,25.51,21.2,79,40,16.11,scattered clouds,0.0,0.0
547,Solnechnyy,RU,2020-02-23 18:05:08,50.72,136.63,1.42,89,24,1.3,few clouds,0.0,0.0
548,Lima,PE,2020-02-23 18:01:04,-12.04,-77.03,82.4,65,75,10.29,broken clouds,0.0,0.0
549,Yerofey Pavlovich,RU,2020-02-23 18:05:08,53.97,121.97,0.9,87,81,3.67,broken clouds,0.0,0.0
550,Sanchazi,CN,2020-02-23 18:05:09,42.08,126.6,21.0,95,77,3.96,broken clouds,0.0,0.0
551,Taoudenni,ML,2020-02-23 18:05:09,22.68,-3.98,88.32,8,66,16.42,broken clouds,0.0,0.0
552,Mehtar Lam,AF,2020-02-23 18:05:09,34.67,70.21,62.6,63,75,6.44,haze,0.0,0.0
553,Langnau,CH,2020-02-23 18:05:09,46.94,7.79,64.4,39,100,6.93,overcast clouds,0.0,0.0
554,Baglung,NP,2020-02-23 18:05:09,28.27,83.59,35.78,42,64,9.19,broken clouds,0.0,0.0
555,Sulangan,PH,2020-02-23 18:05:10,11.14,123.72,79.09,79,4,14.0,light rain,0.62,0.0
556,Araouane,ML,2020-02-23 18:05:10,18.9,-3.53,89.73,7,41,11.97,scattered clouds,0.0,0.0
